{"cinemas":[{"id":1,"name":"Aberdeen - Queens Links","address":"Queens Links Leisure Park, Links Road, Aberdeen","longitude":-2.07796,"latitude":57.15026},{"id":78,"name":"Aberdeen - Union Square","address":"Union Square, Guild Square, Aberdeen","longitude":-2.09637,"latitude":57.14292},{"id":87,"name":"Aldershot","address":"Westgate, Aldershot","longitude":-0.76843,"latitude":51.25067},{"id":12,"name":"Ashford","address":"Eureka Entertainment Centre , Rutherford Road, Ashford","longitude":0.872751,"latitude":51.16091},{"id":23,"name":"Ashton-under-Lyne","address":"Ashton Leisure Park , Fold Way, Ashton-under-Lyne","longitude":-2.11157,"latitude":53.48905},{"id":104,"name":"Basildon","address":"Festival Leisure Park, Basildon","longitude":0.462503,"latitude":51.585},{"id":34,"name":"Bedford","address":"Aspects Leisure Park, Newnham Avenue, Bedford","longitude":-0.44584,"latitude":52.13332},{"id":56,"name":"Birmingham - Broad Street","address":"181 Broad Street, Birmingham","longitude":-1.91556,"latitude":52.47381},{"id":96,"name":"Birmingham - NEC","address":"Resorts World, Pendigo Way, Birmingham","longitude":-1.71768,"latitude":52.4481},{"id":67,"name":"Boldon Tyne and Wear","address":"Boldon Leisure Park, Bolden Colliery, Tyne and Wear","longitude":-1.46633,"latitude":54.94679},{"id":72,"name":"Bolton","address":"The Valley, 15 Eagley Brook Way, Bolton","longitude":-2.42395,"latitude":53.5972},{"id":73,"name":"Bradford","address":"Bradford Leisure Exchange, Vicar Lane, Bradford","longitude":-1.74775,"latitude":53.79162},{"id":2,"name":"Braintree","address":"Freeport Leisure, Charter Way, Braintree","longitude":0.570995,"latitude":51.86998},{"id":3,"name":"Brighton","address":"Brighton Marina Village, Brighton","longitude":-0.10066,"latitude":50.81263},{"id":4,"name":"Bristol","address":"Hengrove Leisure Park, Hengrove Way, Bristol","longitude":-2.58714,"latitude":51.41634},{"id":106,"name":"Bromley","address":"242 High St, Bromley","longitude":0.012342,"latitude":51.4067},{"id":94,"name":"Broughton","address":"Broughton Shopping Park, Chester Road, Broughton","longitude":-2.97369,"latitude":53.16857},{"id":5,"name":"Burton upon Trent","address":"Middle Way Park, Guild Street, Burton upon Trent","longitude":-1.63246,"latitude":52.8056},{"id":6,"name":"Bury St Edmunds","address":"Parkway, Bury St Edmunds","longitude":0.706635,"latitude":52.24621},{"id":8,"name":"Cardiff","address":"Mary Ann Street, Cardiff","longitude":-3.1734,"latitude":51.4787},{"id":9,"name":"Castleford","address":"Xscape, Colorado Way, Castleford","longitude":-1.3419,"latitude":53.71018},{"id":11,"name":"Cheltenham","address":"The Brewery, Oxford Passage, St Margaret's Road, Cheltenham","longitude":-2.07501,"latitude":51.90293},{"id":80,"name":"Cheltenham - The Screening Rooms","address":"The Brewery, Oxford Passage, Cheltenham","longitude":-2.07504,"latitude":51.90288},{"id":14,"name":"Chesterfield","address":"Alma Leisure Park, Derby Road, Chesterfield","longitude":-1.42418,"latitude":53.22716},{"id":15,"name":"Chichester","address":"Chichester Gate, Chichester","longitude":-0.78506,"latitude":50.83},{"id":16,"name":"Crawley","address":"Crawley Leisure Park, London Road, Crawley","longitude":-0.18968,"latitude":51.12082},{"id":109,"name":"Dalton Park","address":"Dalton Park, Murton, County Durham","longitude":-1.37674,"latitude":54.81548},{"id":17,"name":"Didcot","address":"27 Station Road, Didcot","longitude":-1.23983,"latitude":51.60823},{"id":18,"name":"Didsbury","address":"Parrs Wood Entertainment Centre, Wilmslow Road, Manchester ","longitude":-2.22027,"latitude":53.4078},{"id":19,"name":"Dundee","address":"Camperdown Leisure Park, Kingsway West, Dundee","longitude":-3.04619,"latitude":56.48438},{"id":20,"name":"Eastbourne","address":"Sovereign Harbour Retail Park, Pevensey Bay Road, Eastbourne","longitude":0.322874,"latitude":50.79484},{"id":21,"name":"Edinburgh","address":"Fountain Park, 130/3 Dundee Street, Edinburgh","longitude":-3.21693,"latitude":55.94193},{"id":24,"name":"Falkirk","address":"Central Retail Park, Old Bison Works, Falkirk","longitude":-3.77989,"latitude":56.00376},{"id":88,"name":"Glasgow - IMAX at GSC","address":"Glasgow Science Centre, 50 Pacific Quay, Glasgow","longitude":-4.2938,"latitude":55.8602},{"id":27,"name":"Glasgow - Parkhead","address":"Forge Shopping Centre, 1221 Gallowgate, Glasgow","longitude":-4.1998,"latitude":55.85343},{"id":28,"name":"Glasgow - Renfrew Street","address":"7 Renfrew Street, Glasgow","longitude":-4.25516,"latitude":55.8649},{"id":95,"name":"Glasgow - Silverburn","address":"Silverburn Shopping Centre, 763 Barrhead Road, Glasgow","longitude":-4.34184,"latitude":55.82161},{"id":90,"name":"Gloucester Quays","address":"Gloucester Quays Outlet Centre, Merchants Road, Gloucester","longitude":-2.25256,"latitude":51.86083},{"id":31,"name":"Harlow","address":"Queensgate Centre, Edinburgh Way, Harlow ","longitude":0.108092,"latitude":51.78388},{"id":76,"name":"Haverhill","address":"Ehringshausen Way, Haverhill","longitude":0.43978,"latitude":52.08379},{"id":102,"name":"Hemel Hempstead","address":"Jarman Square, Formerly Leisure World, Jarman Park, Hemel Hempstead","longitude":-0.45494,"latitude":51.7481},{"id":33,"name":"High Wycombe","address":"Denmark Street, Eden, High Wycombe","longitude":-0.75376,"latitude":51.62905},{"id":99,"name":"Hinckley","address":"The Crescent, Station Road, Hinckley","longitude":-1.37283,"latitude":52.53934},{"id":35,"name":"Hull","address":"Kingswood Retail Park, Gibraltar Road, Hull","longitude":-0.35345,"latitude":53.79138},{"id":36,"name":"Huntingdon","address":"Tower Field Park, Abbots Ripton Rd, Huntingdon","longitude":-0.18068,"latitude":52.35142},{"id":38,"name":"Ipswich","address":"Cardinal Park, 11 Grafton Way, Ipswich","longitude":1.151031,"latitude":52.05323},{"id":39,"name":"Isle of Wight","address":"Coppins Bridge, Newport, Isle of Wight","longitude":-1.28922,"latitude":50.69895},{"id":40,"name":"Jersey","address":"Waterfront Centre,  La Rue de L'Etau , St Helier","longitude":-2.11444,"latitude":49.18315},{"id":83,"name":"Leigh","address":"The Loom, Spinning Jenny Way, Leigh","longitude":-2.51524,"latitude":53.49405},{"id":41,"name":"Liverpool - CLOSED","address":"Montrose Way, Edge Lane Retail Park, Liverpool","longitude":-2.92492,"latitude":53.40866},{"id":42,"name":"Llandudno","address":"Junction Way Leisure Park, Llandudno Junction","longitude":-3.80842,"latitude":53.28228},{"id":45,"name":"London - Bexleyheath","address":"28-70 Broadway, Bexleyheath","longitude":0.150038,"latitude":51.45627},{"id":10,"name":"London - Chelsea","address":"279 Kings Road, Chelsea, London","longitude":-0.17352,"latitude":51.48533},{"id":22,"name":"London - Enfield","address":"Southbury Leisure Park, 208 Southbury Road, Enfield","longitude":-0.06139,"latitude":51.65255},{"id":25,"name":"London - Feltham","address":"Leisure West, Air Park Way, Feltham","longitude":-0.4046,"latitude":51.44389},{"id":26,"name":"London - Fulham Road","address":"142 Fulham Road, London","longitude":-0.1794,"latitude":51.48715},{"id":32,"name":"London - Haymarket","address":"63-65 Haymarket, London","longitude":-0.13236,"latitude":51.5088},{"id":37,"name":"London - Ilford","address":"I-Scene, Clements Road, Ilford","longitude":0.074141,"latitude":51.55763},{"id":103,"name":"London - Leicester Square","address":"5-6 Leicester Square, London","longitude":-0.13258,"latitude":51.51086},{"id":60,"name":"London - Staples Corner CLOSED","address":"Staples Corner, London","longitude":0.0,"latitude":0.0},{"id":79,"name":"London - The O2 Greenwich","address":"The O2, Peninsula Square, London","longitude":0.00309,"latitude":51.50265},{"id":65,"name":"London - Wandsworth","address":"Southside Centre, Wandsworth High Street, London","longitude":-0.19416,"latitude":51.4554},{"id":89,"name":"London - Wembley","address":" London Designer Outlet, Wembley Park Boulevard, London","longitude":-0.28213,"latitude":51.55676},{"id":66,"name":"London - West India Quay","address":"Hertsmere Road, West India Quay, London","longitude":-0.02381,"latitude":51.50764},{"id":70,"name":"London - Wood Green","address":"The Mall Wood Green, High Road, London","longitude":-0.10643,"latitude":51.59454},{"id":101,"name":"Loughborough","address":"Baxter Gate, Loughborough","longitude":-1.2062,"latitude":52.77258},{"id":43,"name":"Luton","address":"The Galaxy, Bridge Street, Luton","longitude":-0.41763,"latitude":51.88185},{"id":44,"name":"Middlesbrough","address":"Middlesbrough Leisure Park, Marton Road, Middlesbrough","longitude":-1.22627,"latitude":54.57466},{"id":46,"name":"Milton Keynes","address":"Xscape, 602 Malborough Gate, Milton Keynes","longitude":-0.74867,"latitude":52.04143},{"id":97,"name":"Newport - Friars Walk","address":"Friars Walk Shopping Centre, Usk Plaza, Newport","longitude":-2.99254,"latitude":51.5859},{"id":47,"name":"Newport - Spytty Park","address":"Newport Retail Park, Spytty Road, Newport","longitude":-2.94358,"latitude":51.57757},{"id":48,"name":"Northampton","address":"Sixfields Leisure, Weedon Road, Northampton","longitude":-0.93661,"latitude":52.23679},{"id":49,"name":"Nottingham","address":"The Corner House, 29 Forman Street, Nottingham","longitude":-1.1498,"latitude":52.95542},{"id":105,"name":"Poole","address":"Tower Park, Poole","longitude":-1.95176,"latitude":50.7464},{"id":50,"name":"Rochester","address":"Medway Valley Leisure Park, Chariot Way, Rochester","longitude":0.477112,"latitude":51.38003},{"id":51,"name":"Rugby","address":"Junction One, Leicester Road, Rugby","longitude":-1.25916,"latitude":52.38524},{"id":52,"name":"Runcorn","address":"Trident Park, Halton Lea, Runcorn","longitude":-2.69996,"latitude":53.32619},{"id":54,"name":"Sheffield","address":"Valley Centertainment, Broughton Lane, Sheffield","longitude":-1.41496,"latitude":53.40153},{"id":55,"name":"Shrewsbury","address":"Old Potts Way, Shrewsbury","longitude":-2.74053,"latitude":52.70354},{"id":57,"name":"Solihull","address":"47 Mill Lane Arcarde (Upper), Touchwood, Solihull","longitude":-1.77899,"latitude":52.41245},{"id":58,"name":"Southampton","address":"Ocean Village, 4 Ocean Way, Southampton","longitude":-1.39492,"latitude":50.89518},{"id":59,"name":"St Helens","address":"Chalon Way West, St Helens","longitude":-2.73989,"latitude":53.45137},{"id":91,"name":"St Neots","address":"The Rowley Arts Centre, Huntingdon Street, St Neots","longitude":-0.26574,"latitude":52.22903},{"id":61,"name":"Stevenage","address":"Stevenage Leisure Park, Kings Way, Stevenage","longitude":-0.20823,"latitude":51.89991},{"id":62,"name":"Stockport","address":"4 Grand Central Square, Stockport","longitude":-2.16092,"latitude":53.40691},{"id":107,"name":"Stoke-on-Trent","address":"Quadrant Road, City Centre, Stoke-on-Trent","longitude":-2.1759,"latitude":53.02755},{"id":93,"name":"Swindon - Regent Circus","address":"Victoria Road, Swindon","longitude":-1.7803,"latitude":51.55814},{"id":63,"name":"Swindon - Shaw Ridge","address":"Shaw Ridge Leisure Park, Whitehill Way, Swindon","longitude":-1.83149,"latitude":51.56078},{"id":92,"name":"Telford","address":"Southwater Square, Telford","longitude":-2.44697,"latitude":52.67395},{"id":64,"name":"Wakefield","address":"Westgate Leisure Park, Colinsway, Wakefield","longitude":-1.50522,"latitude":53.67715},{"id":68,"name":"Weymouth","address":"New Bond Street, Weymouth","longitude":-2.45608,"latitude":50.60973},{"id":98,"name":"Whiteley","address":"Whiteley Shopping Centre, Whiteley Way, Fareham","longitude":-1.24815,"latitude":50.88605},{"id":77,"name":"Witney","address":"Marriots Walk, Witney","longitude":-1.48645,"latitude":51.78803},{"id":69,"name":"Wolverhampton","address":"Bentley Bridge Park, Wednesfield Way, Wolverhampton","longitude":-2.09173,"latitude":52.59672},{"id":100,"name":"Yate","address":"Riverside, Link Road, Yate","longitude":-2.40912,"latitude":51.5391},{"id":71,"name":"Yeovil","address":" Yeo Leisure Park, Old Station Way, Yeovil","longitude":-2.62552,"latitude":50.94036}]}